,City,Country,Lat,Lng,Max Temp,Humidity,Cloudiness,Wind Speed,Weather Description,Date
0,Busselton,AU,-33.65,115.3333,56.79,73,87,13.4,overcast clouds,2022-07-24 17:28:34
1,Hithadhoo,MV,-0.6,73.0833,82.18,72,99,6.26,overcast clouds,2022-07-24 17:28:34
2,Clyde River,CA,70.4692,-68.5914,43.03,93,100,18.41,overcast clouds,2022-07-24 17:28:35
3,Lorengau,PG,-2.0226,147.2712,81.88,79,51,7.54,broken clouds,2022-07-24 17:28:35
4,Hilo,US,19.7297,-155.09,79.29,83,100,6.91,overcast clouds,2022-07-24 17:27:00
5,Nyurba,RU,63.2842,118.3319,66.49,78,46,7.96,scattered clouds,2022-07-24 17:28:36
6,Tabou,CI,4.423,-7.3528,75.63,80,100,8.39,light rain,2022-07-24 17:28:36
7,Hermanus,ZA,-34.4187,19.2345,52.81,70,2,14.47,clear sky,2022-07-24 17:28:36
8,Cape Town,ZA,-33.9258,18.4232,58.26,69,0,10.0,clear sky,2022-07-24 17:24:03
9,Albany,US,42.6001,-73.9662,96.17,38,45,1.99,scattered clouds,2022-07-24 17:24:06
10,Tuatapere,NZ,-46.1333,167.6833,41.4,91,52,2.39,broken clouds,2022-07-24 17:28:37
11,Faya,SA,18.3851,42.4509,64.51,58,92,7.99,overcast clouds,2022-07-24 17:28:38
12,Hervey Bay,AU,-25.2986,152.8535,62.37,75,29,11.36,scattered clouds,2022-07-24 17:28:38
13,Rikitea,PF,-23.1203,-134.9692,74.59,78,78,14.38,broken clouds,2022-07-24 17:28:38
14,Mataura,NZ,-46.1927,168.8643,34.48,98,15,2.44,few clouds,2022-07-24 17:28:39
15,Hurricane,US,37.1753,-113.2899,88.5,39,76,2.01,broken clouds,2022-07-24 17:28:39
16,Uglegorsk,RU,49.0833,142.0333,59.76,96,100,1.45,overcast clouds,2022-07-24 17:28:40
17,Nanortalik,GL,60.1432,-45.2371,49.21,73,100,1.97,overcast clouds,2022-07-24 17:28:40
18,Cherskiy,RU,68.75,161.3,50.36,57,55,5.48,broken clouds,2022-07-24 17:28:41
19,Acari,PE,-15.4311,-74.6158,73.4,52,19,8.75,few clouds,2022-07-24 17:28:41
20,San Carlos De Bariloche,AR,-41.1456,-71.3082,39.24,87,75,6.91,moderate rain,2022-07-24 17:28:41
21,Ahuimanu,US,21.4447,-157.8378,78.51,72,75,12.66,broken clouds,2022-07-24 17:28:42
22,Imphal,IN,24.8167,93.95,71.37,98,100,0.22,light rain,2022-07-24 17:28:42
23,Vaini,TO,-21.2,-175.2,69.96,88,40,6.91,scattered clouds,2022-07-24 17:28:43
24,Havelock,US,34.8791,-76.9013,87.98,79,0,8.99,clear sky,2022-07-24 17:27:13
25,Saldanha,ZA,-33.0117,17.9442,53.65,68,0,9.31,clear sky,2022-07-24 17:28:43
26,Punta Arenas,CL,-53.15,-70.9167,41.02,65,20,18.41,few clouds,2022-07-24 17:28:13
27,Siavonga,ZM,-16.5382,28.7088,71.44,50,32,1.86,scattered clouds,2022-07-24 17:28:44
28,Beidao,CN,34.5686,105.8933,68.25,89,42,5.08,scattered clouds,2022-07-24 17:28:44
29,Rapid Valley,US,44.0625,-103.1463,85.42,47,0,15.99,clear sky,2022-07-24 17:28:45
30,Airai,TL,-8.9266,125.4092,53.6,83,85,1.77,overcast clouds,2022-07-24 17:28:45
31,Bluff,NZ,-46.6,168.3333,34.81,86,24,4.27,few clouds,2022-07-24 17:28:45
32,Umm Kaddadah,SD,13.6017,26.6876,97.77,23,50,3.74,scattered clouds,2022-07-24 17:28:46
33,Lima,PE,-12.0432,-77.0282,61.05,77,75,13.8,broken clouds,2022-07-24 17:25:26
34,Port Elizabeth,ZA,-33.918,25.5701,56.1,96,40,3.44,scattered clouds,2022-07-24 17:28:46
35,Mar Del Plata,AR,-38.0023,-57.5575,54.09,96,100,10.0,mist,2022-07-24 17:28:36
36,Barrow,US,71.2906,-156.7887,37.42,93,100,3.44,overcast clouds,2022-07-24 17:28:42
37,Katsuura,JP,35.1333,140.3,77.81,88,100,12.17,overcast clouds,2022-07-24 17:28:47
38,Kahului,US,20.8947,-156.47,78.84,72,20,13.8,few clouds,2022-07-24 17:28:48
39,Dunda,TZ,-8.1167,34.25,71.33,44,4,10.65,clear sky,2022-07-24 17:28:48
40,Puerto Ayora,EC,-0.7393,-90.3518,80.56,85,42,8.99,scattered clouds,2022-07-24 17:28:49
41,Atuona,PF,-9.8,-139.0333,77.11,66,64,19.15,broken clouds,2022-07-24 17:28:49
42,Brooks,CA,50.5834,-111.8851,75.04,56,15,10.36,few clouds,2022-07-24 17:25:41
43,Kuah,MY,6.3265,99.8432,82.38,89,20,0.0,few clouds,2022-07-24 17:28:50
44,Huilong,CN,31.8111,121.655,80.92,89,0,7.14,clear sky,2022-07-24 17:28:50
45,Coihaique,CL,-45.5752,-72.0662,34.41,75,100,5.75,overcast clouds,2022-07-24 17:28:51
46,Yeban,PH,17.022,121.9419,76.78,91,51,1.79,broken clouds,2022-07-24 17:28:51
47,Sao Jose Da Coroa Grande,BR,-8.8978,-35.1478,78.28,65,96,12.37,overcast clouds,2022-07-24 17:29:52
48,Lebyazhye,RU,55.2689,66.4947,65.39,86,62,7.16,broken clouds,2022-07-24 17:29:52
49,Lagoa,PT,39.05,-27.9833,74.12,87,6,9.28,clear sky,2022-07-24 17:29:52
50,Nemuro,JP,43.3236,145.575,60.75,91,88,7.0,overcast clouds,2022-07-24 17:29:53
51,Suhbaatar,MN,50.2314,106.2078,58.98,88,100,3.65,moderate rain,2022-07-24 17:29:53
52,Beringovskiy,RU,63.05,179.3167,45.93,75,91,7.18,overcast clouds,2022-07-24 17:29:54
53,Tiksi,RU,71.6872,128.8694,43.27,83,21,3.22,few clouds,2022-07-24 17:29:54
54,Taoudenni,ML,22.6783,-3.9836,112.23,11,11,15.48,few clouds,2022-07-24 17:29:54
55,Bolzano,IT,46.4927,11.3336,93.15,35,0,8.05,clear sky,2022-07-24 17:29:55
56,Shellbrook,CA,53.2168,-106.4011,67.23,56,69,6.04,broken clouds,2022-07-24 17:29:55
57,Xinqing,CN,48.2333,129.5,59.38,97,4,2.48,clear sky,2022-07-24 17:29:56
58,East London,ZA,-33.0153,27.9116,54.54,87,20,10.36,few clouds,2022-07-24 17:29:02
59,Dalbandin,PK,28.8947,64.4101,82.36,63,95,14.56,light rain,2022-07-24 17:29:56
60,Castro,BR,-24.7911,-50.0119,76.05,37,91,2.73,overcast clouds,2022-07-24 17:29:57
61,Kharagpur,IN,22.3333,87.3333,80.98,87,100,9.93,light rain,2022-07-24 17:29:57
62,Kapaa,US,22.0752,-159.319,79.12,79,75,12.66,broken clouds,2022-07-24 17:29:57
63,Half Moon Bay,US,37.4636,-122.4286,72.88,76,100,10.36,mist,2022-07-24 17:29:58
64,Makungu,TZ,-8.7333,35.2833,59.25,74,24,4.54,few clouds,2022-07-24 17:29:59
65,Coahuayana,MX,18.7333,-103.6833,90.01,48,49,3.22,scattered clouds,2022-07-24 17:29:59
66,Takanabe,JP,32.1333,131.5,76.42,92,31,0.69,scattered clouds,2022-07-24 17:30:00
67,Ribeira Grande,PT,38.5167,-28.7,79.2,78,40,11.5,scattered clouds,2022-07-24 17:30:00
68,Ushuaia,AR,-54.8,-68.3,37.02,64,0,3.44,clear sky,2022-07-24 17:28:53
69,Pevek,RU,69.7008,170.3133,36.1,88,58,0.85,broken clouds,2022-07-24 17:30:01
70,Bousso,TD,10.4795,16.7117,83.23,67,67,2.15,broken clouds,2022-07-24 17:30:01
71,Dikson,RU,73.5069,80.5464,47.55,87,100,17.27,light rain,2022-07-24 17:30:02
72,Ilam,NP,26.9167,87.9167,69.04,92,91,1.48,light rain,2022-07-24 17:30:02
73,Rocha,UY,-34.4833,-54.3333,69.44,80,42,4.05,scattered clouds,2022-07-24 17:26:06
74,Georgetown,MY,5.4112,100.3354,78.89,94,40,2.3,thunderstorm with light rain,2022-07-24 17:25:48
75,Chuy,UY,-33.6971,-53.4616,66.74,84,45,3.83,scattered clouds,2022-07-24 17:30:03
76,Talara,PE,-4.5772,-81.2719,74.16,64,0,14.97,clear sky,2022-07-24 17:30:04
77,Tucurui,BR,-3.7661,-49.6725,92.08,37,24,3.56,few clouds,2022-07-24 17:30:04
78,Pisco,PE,-13.7,-76.2167,62.65,82,100,8.05,mist,2022-07-24 17:28:39
79,Thompson,CA,55.7435,-97.8558,68.16,45,75,8.05,broken clouds,2022-07-24 17:29:31
80,Letlhakane,BW,-21.4167,25.5833,67.23,29,46,4.25,scattered clouds,2022-07-24 17:30:05
81,Kisangani,CD,0.5167,25.2,77.63,77,97,2.3,overcast clouds,2022-07-24 17:30:06
82,Kaitangata,NZ,-46.2817,169.8464,34.38,92,6,2.28,clear sky,2022-07-24 17:30:06
83,Mogadishu,SO,2.0371,45.3438,75.85,83,38,20.07,scattered clouds,2022-07-24 17:29:50
84,Howard Springs,AU,-12.497,131.047,64.31,94,8,3.49,clear sky,2022-07-24 17:30:07
85,Ambulu,ID,-8.345,113.6058,69.66,81,81,4.36,broken clouds,2022-07-24 17:28:50
86,Jamestown,US,42.097,-79.2353,82.04,69,100,13.8,overcast clouds,2022-07-24 17:28:48
87,Ponta Do Sol,PT,32.6667,-17.1,85.12,44,8,4.21,clear sky,2022-07-24 17:30:08
88,Poso,ID,-1.3959,120.7524,75.34,86,46,5.21,scattered clouds,2022-07-24 17:30:08
89,Losinyy,RU,57.1386,61.0666,71.35,83,25,5.64,scattered clouds,2022-07-24 17:30:08
90,Nikolskoye,RU,59.7035,30.7861,66.78,94,100,3.0,overcast clouds,2022-07-24 17:31:09
91,Qaanaaq,GL,77.484,-69.3632,39.22,91,100,1.83,overcast clouds,2022-07-24 17:31:10
92,Yumen,CN,40.2833,97.2,78.93,26,13,12.88,few clouds,2022-07-24 17:31:10
93,Carutapera,BR,-1.195,-46.02,82.92,70,76,8.25,broken clouds,2022-07-24 17:31:10
94,Iqaluit,CA,63.7506,-68.5145,47.93,93,75,5.75,broken clouds,2022-07-24 17:31:11
95,Eureka,US,40.8021,-124.1637,58.93,86,3,1.99,clear sky,2022-07-24 17:31:11
96,Saint-Pierre,RE,-21.3393,55.4781,69.3,73,100,3.44,overcast clouds,2022-07-24 17:31:12
97,Micheweni,TZ,-4.9667,39.8333,74.44,77,10,11.83,clear sky,2022-07-24 17:31:12
98,Khatanga,RU,71.9667,102.5,66.81,59,93,14.83,overcast clouds,2022-07-24 17:31:12
99,Makakilo City,US,21.3469,-158.0858,77.32,71,0,12.66,clear sky,2022-07-24 17:31:13
100,Poum,NC,-20.2333,164.0167,73.87,68,0,12.12,clear sky,2022-07-24 17:31:13
101,Necochea,AR,-38.5473,-58.7368,49.39,87,100,11.1,overcast clouds,2022-07-24 17:31:14
102,Tasiilaq,GL,65.6145,-37.6368,48.36,84,47,7.23,scattered clouds,2022-07-24 17:31:14
103,Henties Bay,NA,-22.116,14.2845,55.62,89,16,3.18,few clouds,2022-07-24 17:31:15
104,Saint-Philippe,RE,-21.3585,55.7679,69.22,81,60,11.48,light rain,2022-07-24 17:31:15
105,Nouadhibou,MR,20.931,-17.0347,82.38,69,20,14.97,few clouds,2022-07-24 17:31:16
106,Sorland,NO,67.667,12.6934,53.46,79,49,18.37,scattered clouds,2022-07-24 17:31:16
107,Richards Bay,ZA,-28.783,32.0377,63.05,57,27,19.93,scattered clouds,2022-07-24 17:31:16
108,Kafanchan,NG,9.5833,8.3,70.74,91,78,2.13,moderate rain,2022-07-24 17:31:17
109,Balykshi,KZ,47.0667,51.8667,69.8,78,75,6.71,broken clouds,2022-07-24 17:31:17
110,Avarua,CK,-21.2078,-159.775,69.85,52,100,3.44,overcast clouds,2022-07-24 17:28:45
111,Norman Wells,CA,65.282,-126.8329,66.24,55,20,8.05,few clouds,2022-07-24 17:31:18
112,Dukat,RU,62.55,155.55,45.21,70,20,4.0,few clouds,2022-07-24 17:31:18
113,Calamar,CO,10.2511,-74.9146,89.92,55,11,3.56,few clouds,2022-07-24 17:31:19
114,Namatanai,PG,-3.6667,152.4333,78.67,85,24,6.71,few clouds,2022-07-24 17:31:19
115,Twin Falls,US,42.3505,-114.6445,79.14,21,0,12.66,clear sky,2022-07-24 17:31:20
116,Hobart,AU,-42.8794,147.3294,46.27,94,63,6.91,broken clouds,2022-07-24 17:31:20
117,San Carlos Del Zulia,VE,9.0,-71.9135,90.95,51,69,6.29,broken clouds,2022-07-24 17:31:21
118,Bambanglipuro,ID,-7.95,110.2833,72.43,78,31,6.82,scattered clouds,2022-07-24 17:31:21
119,Adrar,MR,20.5022,-10.0711,108.25,5,6,9.19,clear sky,2022-07-24 17:31:21
120,Bredasdorp,ZA,-34.5322,20.0403,49.55,85,4,7.78,clear sky,2022-07-24 17:31:22
121,Synya,RU,65.3718,58.0387,51.53,69,81,4.7,broken clouds,2022-07-24 17:31:23
122,San Patricio,US,28.017,-97.5169,95.72,42,4,18.01,clear sky,2022-07-24 17:31:23
123,Nenjiang,CN,49.1833,125.2167,65.61,79,67,3.29,broken clouds,2022-07-24 17:31:24
124,Burnie,AU,-41.0667,145.9167,51.94,86,74,9.28,broken clouds,2022-07-24 17:31:24
125,Kalabo,ZM,-14.97,22.6814,68.68,27,0,3.87,clear sky,2022-07-24 17:31:24
126,Faanui,PF,-16.4833,-151.75,78.31,76,12,10.96,light rain,2022-07-24 17:31:25
127,San Joaquin,US,37.9333,-121.3011,79.54,53,0,8.05,clear sky,2022-07-24 17:31:25
128,Guaraniacu,BR,-25.1008,-52.8781,77.23,40,95,4.81,overcast clouds,2022-07-24 17:30:10
129,Keti Bandar,PK,24.1447,67.4497,79.56,94,100,13.29,light rain,2022-07-24 17:31:26
130,Odweyne,SO,9.4092,45.064,75.47,48,84,19.33,broken clouds,2022-07-24 17:31:26
131,Keflavik,IS,64.0049,-22.5624,53.51,82,75,10.36,broken clouds,2022-07-24 17:31:27
132,Kang,BW,-23.6752,22.7876,63.91,37,20,7.16,few clouds,2022-07-24 17:31:28
133,Bengkulu,ID,-3.8004,102.2655,75.29,92,97,7.18,moderate rain,2022-07-24 17:31:28
134,Tuktoyaktuk,CA,69.4541,-133.0374,44.6,87,100,4.61,overcast clouds,2022-07-24 17:32:28
135,New Norfolk,AU,-42.7826,147.0587,45.91,90,72,2.82,broken clouds,2022-07-24 17:32:29
136,Severnyy,RU,50.677,36.5532,75.24,57,0,4.47,clear sky,2022-07-24 17:32:29
137,Bubaque,GW,11.2833,-15.8333,76.64,90,100,18.23,light rain,2022-07-24 17:32:30
138,Pansemal,IN,21.65,74.7,74.53,95,100,8.57,overcast clouds,2022-07-24 17:32:30
139,Barguzin,RU,53.6167,109.6167,61.63,91,100,3.67,overcast clouds,2022-07-24 17:32:30
140,Deputatskiy,RU,69.3,139.9,50.38,78,61,2.68,broken clouds,2022-07-24 17:32:31
141,Yellowknife,CA,62.456,-114.3525,61.32,82,100,4.61,overcast clouds,2022-07-24 17:28:44
142,Aswan,EG,24.0934,32.907,103.3,7,0,11.5,clear sky,2022-07-24 17:32:31
143,Yantal,RU,56.8471,105.2542,54.9,95,49,0.76,scattered clouds,2022-07-24 17:32:32
144,Chapais,CA,49.7834,-74.8492,71.38,42,89,11.95,overcast clouds,2022-07-24 17:32:32
145,Butaritari,KI,3.0707,172.7902,82.26,74,22,20.69,light rain,2022-07-24 17:32:33
146,Russell,US,32.3502,-85.1999,91.9,39,18,2.71,few clouds,2022-07-24 17:30:48
147,Vardo,NO,70.3705,31.1107,53.58,76,40,11.5,scattered clouds,2022-07-24 17:32:33
148,Shubarshi,KZ,48.5872,57.1869,77.34,45,63,3.36,broken clouds,2022-07-24 17:32:34
149,Saskylakh,RU,71.9167,114.0833,59.23,78,97,5.35,overcast clouds,2022-07-24 17:32:34
150,Charqueada,BR,-22.5097,-47.7781,84.88,23,76,3.18,broken clouds,2022-07-24 17:32:35
151,Inirida,CO,3.8653,-67.9239,74.77,91,100,2.68,overcast clouds,2022-07-24 17:32:35
152,Vila Velha,BR,-20.3297,-40.2925,78.75,74,75,10.36,broken clouds,2022-07-24 17:29:09
153,Longyearbyen,SJ,78.2186,15.6401,48.04,87,75,13.8,broken clouds,2022-07-24 17:32:36
154,Zhezkazgan,KZ,47.8043,67.7144,79.88,27,13,15.17,few clouds,2022-07-24 17:32:36
155,Olinda,BR,-8.0089,-34.8553,80.33,65,75,17.27,broken clouds,2022-07-24 17:32:36
156,Diffa,NE,13.3154,12.6113,95.13,33,31,2.17,scattered clouds,2022-07-24 17:32:37
157,Saint-Andre-Avellin,CA,45.7168,-75.066,79.29,93,100,12.68,overcast clouds,2022-07-24 17:32:37
158,Lambayeque,PE,-6.7011,-79.9061,69.91,64,0,9.22,clear sky,2022-07-24 17:32:38
159,Nioro,GM,13.35,-15.75,82.98,68,96,7.47,overcast clouds,2022-07-24 17:32:38
160,Muncar,ID,-8.4333,114.3333,70.47,80,77,2.86,broken clouds,2022-07-24 17:32:39
161,Hamilton,US,39.1834,-84.5333,89.65,67,0,16.11,clear sky,2022-07-24 17:28:08
162,Wenchi,GH,7.7392,-2.1046,76.05,76,94,4.43,overcast clouds,2022-07-24 17:32:39
163,Lebu,CL,-37.6167,-73.65,48.92,96,100,5.95,overcast clouds,2022-07-24 17:32:40
164,Manggar,ID,-2.8833,108.2667,80.13,84,71,11.5,broken clouds,2022-07-24 17:32:40
165,Nelson Bay,AU,-32.7167,152.15,54.0,99,4,5.01,clear sky,2022-07-24 17:32:41
166,Gorele,TR,41.0308,39.0031,67.91,75,4,5.26,clear sky,2022-07-24 17:32:41
167,Codrington,AU,-38.2667,141.9667,56.08,73,100,13.82,overcast clouds,2022-07-24 17:32:41
168,Xianshuigu,CN,38.985,117.3828,84.2,70,0,8.95,clear sky,2022-07-24 17:32:42
169,Kodiak,US,57.79,-152.4072,54.91,88,100,11.5,light rain,2022-07-24 17:32:42
170,Meulaboh,ID,4.1363,96.1285,75.45,93,100,3.42,overcast clouds,2022-07-24 17:32:43
171,Touros,BR,-5.1989,-35.4608,79.23,79,88,19.66,overcast clouds,2022-07-24 17:32:43
172,Shihezi,CN,44.3,86.0333,81.73,37,52,7.9,broken clouds,2022-07-24 17:32:44
173,Salalah,OM,17.0151,54.0924,77.09,94,75,8.05,broken clouds,2022-07-24 17:32:44
174,Abaza,RU,52.655,90.0928,51.55,93,98,5.48,overcast clouds,2022-07-24 17:32:44
175,Souillac,MU,-20.5167,57.5167,70.18,73,40,10.36,scattered clouds,2022-07-24 17:32:45
176,Broome,US,42.2506,-75.833,88.16,59,20,8.05,few clouds,2022-07-24 17:32:45
177,Sioux Lookout,CA,50.1001,-91.917,55.47,76,75,16.11,light intensity shower rain,2022-07-24 17:32:46
178,Tessalit,ML,20.1986,1.0114,98.35,21,90,11.41,overcast clouds,2022-07-24 17:32:46
179,Mareeba,AU,-17.0,145.4333,63.32,97,3,2.64,clear sky,2022-07-24 17:32:47
180,Wad Madani,SD,14.4012,33.5199,78.35,69,100,15.68,moderate rain,2022-07-24 17:32:47
181,Kargasok,RU,59.0556,80.8572,50.81,96,100,5.95,overcast clouds,2022-07-24 17:33:47
182,Diamantino,BR,-14.4086,-56.4461,96.15,19,11,7.56,few clouds,2022-07-24 17:33:48
183,Gat,IL,31.61,34.7642,83.8,100,0,4.45,clear sky,2022-07-24 17:33:48
184,Mahebourg,MU,-20.4081,57.7,70.09,73,40,10.36,scattered clouds,2022-07-24 17:33:49
185,Hasaki,JP,35.7333,140.8333,75.6,87,96,13.82,overcast clouds,2022-07-24 17:33:49
186,Husavik,IS,66.0449,-17.3389,49.95,81,91,7.74,overcast clouds,2022-07-24 17:33:49
187,General Roca,AR,-39.0333,-67.5833,49.62,67,100,17.2,light rain,2022-07-24 17:33:50
188,Pangnirtung,CA,66.1451,-65.7125,44.6,93,75,8.05,broken clouds,2022-07-24 17:33:50
189,Kloulklubed,PW,7.0419,134.2556,75.7,73,96,7.54,light rain,2022-07-24 17:33:51
190,Santa Cruz,BO,-17.8,-63.1667,87.85,51,75,23.02,broken clouds,2022-07-24 17:30:04
191,Asfi,MA,32.2994,-9.2372,79.41,67,83,14.99,broken clouds,2022-07-24 17:33:51
192,Orange Cove,US,36.6244,-119.3137,99.68,24,0,8.05,clear sky,2022-07-24 17:33:52
193,Kapit,MY,2.0167,112.9333,73.87,99,100,0.74,overcast clouds,2022-07-24 17:33:52
194,Kijang,KR,35.2442,129.2139,76.73,91,3,2.89,clear sky,2022-07-24 17:33:52
195,Lompoc,US,34.6391,-120.4579,57.92,82,100,6.91,overcast clouds,2022-07-24 17:33:53
196,Atlantic City,US,39.3643,-74.4229,100.18,58,0,6.91,clear sky,2022-07-24 17:33:28
197,Anito,PH,12.4497,125.2886,78.44,88,59,2.17,broken clouds,2022-07-24 17:33:54
198,Alyangula,AU,-13.8483,136.4192,69.57,93,12,4.88,few clouds,2022-07-24 17:33:54
199,Pochutla,MX,15.7432,-96.4661,85.82,75,100,2.08,overcast clouds,2022-07-24 17:33:55
200,Portland,US,45.5234,-122.6762,75.96,72,20,4.61,few clouds,2022-07-24 17:30:41
201,Karwar,IN,14.8,74.1333,77.72,86,99,9.28,overcast clouds,2022-07-24 17:33:55
202,Mingaora,PK,34.7758,72.3625,76.5,87,77,2.26,broken clouds,2022-07-24 17:33:55
203,Upernavik,GL,72.7868,-56.1549,42.3,94,94,5.5,overcast clouds,2022-07-24 17:33:56
204,Baykit,RU,61.67,96.37,52.74,78,6,4.47,clear sky,2022-07-24 17:33:56
205,The Pas,CA,53.8251,-101.2541,68.02,52,75,6.91,broken clouds,2022-07-24 17:30:48
206,Aklavik,CA,68.2191,-135.0107,50.0,81,100,0.0,shower rain,2022-07-24 17:33:57
207,Kawalu,ID,-7.3817,108.2082,69.62,92,100,1.77,overcast clouds,2022-07-24 17:33:57
208,Lasa,IT,46.6166,10.7002,81.48,79,73,2.71,broken clouds,2022-07-24 17:33:58
209,Atambua,ID,-9.1061,124.8925,65.64,76,93,4.27,overcast clouds,2022-07-24 17:33:58
210,Sovetskaya,RU,44.7769,41.1722,63.52,77,74,6.91,light rain,2022-07-24 17:33:59
211,Fairbanks,US,64.8378,-147.7164,59.09,62,20,5.75,few clouds,2022-07-24 17:33:59
212,Chokurdakh,RU,70.6333,147.9167,51.67,62,79,7.94,broken clouds,2022-07-24 17:34:00
213,Kavieng,PG,-2.5744,150.7967,81.72,77,26,8.1,scattered clouds,2022-07-24 17:34:00
214,Cidreira,BR,-30.1811,-50.2056,67.05,86,85,4.52,overcast clouds,2022-07-24 17:32:51
215,La Trinidad,PH,16.455,120.5875,63.45,90,27,4.23,scattered clouds,2022-07-24 17:29:21
216,Bethel,US,41.3712,-73.414,94.35,50,0,11.5,clear sky,2022-07-24 17:34:01
217,Zeya,RU,53.75,127.2667,64.56,74,0,2.73,clear sky,2022-07-24 17:34:01
218,Lavrentiya,RU,65.5833,-171.0,41.16,91,100,8.39,light rain,2022-07-24 17:34:02
219,Iskateley,RU,67.6803,53.1512,51.31,75,100,9.19,overcast clouds,2022-07-24 17:34:02
220,Aljezur,PT,37.3191,-8.8033,82.49,43,82,13.24,broken clouds,2022-07-24 17:34:03
221,Cefalu,IT,38.0386,14.0229,87.55,74,0,1.99,clear sky,2022-07-24 17:34:03
222,Usinsk,RU,65.9939,57.5281,48.49,83,86,9.6,overcast clouds,2022-07-24 17:34:04
223,Copiapo,CL,-27.3667,-70.3333,55.09,53,1,4.65,clear sky,2022-07-24 17:34:04
224,Kota Belud,MY,6.351,116.4305,76.69,89,93,4.47,overcast clouds,2022-07-24 17:34:05
225,Conceicao Da Barra,BR,-18.5933,-39.7322,77.38,60,100,7.92,overcast clouds,2022-07-24 17:34:05
226,Kinshasa,CD,-4.3246,15.3215,86.5,41,57,1.57,broken clouds,2022-07-24 17:34:05
227,Miranda,CO,3.2499,-76.2281,81.64,66,82,3.62,broken clouds,2022-07-24 17:35:06
228,Zhoucheng,CN,35.9122,116.3117,73.42,87,0,6.11,clear sky,2022-07-24 17:35:06
229,Pak Phanang,TH,8.3511,100.202,78.91,84,15,2.59,few clouds,2022-07-24 17:35:07
230,Fortuna,US,40.5982,-124.1573,55.74,57,9,6.24,clear sky,2022-07-24 17:35:07
231,Khor,RU,47.8861,134.9464,61.99,96,12,4.52,few clouds,2022-07-24 17:35:07
232,Kiruna,SE,67.8557,20.2251,54.52,76,75,3.44,light rain,2022-07-24 17:35:08
233,Guerrero Negro,MX,27.9769,-114.0611,77.0,56,77,4.59,broken clouds,2022-07-24 17:35:08
234,Chernyshevskiy,RU,63.0128,112.4714,64.44,98,100,3.98,overcast clouds,2022-07-24 17:35:09
235,Sechura,PE,-5.5569,-80.8222,77.29,58,19,12.73,few clouds,2022-07-24 17:35:09
236,Cabo San Lucas,MX,22.8909,-109.9124,89.62,79,40,5.75,scattered clouds,2022-07-24 17:30:33
237,Yiyang,CN,28.5892,112.3283,82.78,75,42,5.88,light rain,2022-07-24 17:32:08
238,Bell Ville,AR,-32.6259,-62.6887,77.61,56,32,4.81,scattered clouds,2022-07-24 17:35:10
239,Little Current,CA,45.9793,-81.9248,75.25,87,96,10.71,overcast clouds,2022-07-24 17:35:11
240,College,US,64.8569,-147.8028,60.08,62,40,5.75,scattered clouds,2022-07-24 17:35:11
241,Narsaq,GL,60.9167,-46.05,59.22,60,13,4.52,few clouds,2022-07-24 17:35:11
242,Arraial Do Cabo,BR,-22.9661,-42.0278,80.56,65,0,19.57,clear sky,2022-07-24 17:35:12
243,Villamontes,BO,-21.25,-63.5,89.06,37,83,4.38,broken clouds,2022-07-24 17:35:12
244,Jiuquan,CN,39.7432,98.5174,77.25,30,69,1.74,broken clouds,2022-07-24 17:35:13
245,Malgrat De Mar,ES,41.6466,2.7414,92.97,76,0,10.0,clear sky,2022-07-24 17:35:13
246,Saint-Georges,GD,12.0564,-61.7485,85.68,70,20,23.02,few clouds,2022-07-24 17:35:13
247,Sahaspur,IN,29.1333,78.6167,86.22,62,95,13.98,overcast clouds,2022-07-24 17:35:14
248,Vila Franca Do Campo,PT,37.7167,-25.4333,75.61,80,74,4.92,broken clouds,2022-07-24 17:35:14
249,Mecca,SA,21.4267,39.8261,90.09,49,63,3.58,broken clouds,2022-07-24 17:32:07
250,Ahipara,NZ,-35.1667,173.1667,60.62,94,100,23.42,moderate rain,2022-07-24 17:35:15
251,Charlestown,AU,-32.95,151.6667,53.69,96,1,1.99,clear sky,2022-07-24 17:35:12
252,Adet,ET,11.2644,37.4888,56.89,94,100,3.62,overcast clouds,2022-07-24 17:35:16
253,Mandalgovi,MN,45.7625,106.2708,61.9,59,81,11.77,broken clouds,2022-07-24 17:35:16
254,Sitka,US,57.0531,-135.33,57.09,88,100,9.22,light rain,2022-07-24 17:33:10
255,Plouzane,FR,48.3833,-4.6167,71.92,73,100,16.11,overcast clouds,2022-07-24 17:35:17
256,Intipuca,SV,13.1969,-88.0544,91.35,42,69,4.88,broken clouds,2022-07-24 17:35:17
257,San Quintin,MX,30.4833,-115.95,72.05,71,97,9.4,overcast clouds,2022-07-24 17:35:17
258,Cordoba,AR,-31.4135,-64.1811,76.24,60,20,8.05,few clouds,2022-07-24 17:35:18
259,Sorong,ID,-0.8833,131.25,77.68,89,95,6.44,overcast clouds,2022-07-24 17:35:18
260,Port Alfred,ZA,-33.5906,26.891,58.93,58,70,9.57,broken clouds,2022-07-24 17:35:19
261,Adeje,ES,28.1227,-16.726,92.28,57,0,4.61,clear sky,2022-07-24 17:35:19
262,San Cristobal,VE,7.7669,-72.225,78.98,37,97,7.76,overcast clouds,2022-07-24 17:35:19
263,Bariadi,TZ,-2.8,33.9833,73.81,36,29,6.8,scattered clouds,2022-07-24 17:35:20
264,Mutoko,ZW,-17.397,32.2268,62.91,44,77,6.8,broken clouds,2022-07-24 17:35:20
265,Komsomolskiy,UZ,40.4272,71.7189,95.72,11,6,13.8,clear sky,2022-07-24 17:35:21
266,Zhanakorgan,KZ,43.9098,67.2495,92.08,20,0,15.17,clear sky,2022-07-24 17:35:21
267,Ialibu,PG,-6.2821,143.9935,55.54,96,87,1.14,overcast clouds,2022-07-24 17:35:21
268,Chachapoyas,PE,-6.2317,-77.869,65.88,66,53,3.51,light rain,2022-07-24 17:35:22
269,Carnarvon,AU,-24.8667,113.6333,59.49,47,0,16.67,clear sky,2022-07-24 17:34:44
270,Tiznit,MA,29.5833,-9.5,95.81,19,46,7.0,scattered clouds,2022-07-24 17:35:22
271,Gambela,ET,8.25,34.5833,70.5,94,100,2.62,overcast clouds,2022-07-24 17:35:23
272,Ostrovnoy,RU,68.0531,39.5131,51.73,80,80,12.64,broken clouds,2022-07-24 17:35:23
273,Knysna,ZA,-34.0363,23.0471,53.65,80,32,2.64,scattered clouds,2022-07-24 17:35:24
274,Pathein,MM,16.7833,94.7333,79.68,88,97,4.52,overcast clouds,2022-07-24 17:35:24
275,Muros,ES,42.7762,-9.0603,78.67,69,32,7.07,scattered clouds,2022-07-24 17:35:24
276,Mayor Pablo Lagerenza,PY,-19.9309,-60.7718,98.42,18,22,14.79,few clouds,2022-07-24 17:36:25
277,Laguna,US,38.421,-121.4238,90.97,50,0,3.44,clear sky,2022-07-24 17:32:20
278,Erzin,TR,36.9559,36.2,79.74,41,0,6.15,clear sky,2022-07-24 17:36:26
279,Atar,MR,20.5169,-13.0499,101.93,26,4,13.38,clear sky,2022-07-24 17:36:26
280,Sao Filipe,CV,14.8961,-24.4956,75.67,91,96,3.53,moderate rain,2022-07-24 17:36:26
281,Ouesso,CG,1.6136,16.0517,75.31,87,98,3.36,light rain,2022-07-24 17:36:27
282,Oktyabrskiy,RU,54.4815,53.471,67.69,74,45,3.89,scattered clouds,2022-07-24 17:36:27
283,Geraldton,AU,-28.7667,114.6,48.61,87,3,11.5,clear sky,2022-07-24 17:36:28
284,Mount Isa,AU,-20.7333,139.5,49.77,76,0,0.0,light rain,2022-07-24 17:36:28
285,Tynda,RU,55.1667,124.7167,59.72,88,3,1.34,clear sky,2022-07-24 17:36:28
286,Jatai,BR,-17.8814,-51.7144,86.83,23,79,5.79,broken clouds,2022-07-24 17:36:29
287,Ilulissat,GL,69.2167,-51.1,40.41,91,100,4.32,overcast clouds,2022-07-24 17:36:29
288,Qasigiannguit,GL,68.8193,-51.1922,40.21,91,100,4.41,overcast clouds,2022-07-24 17:36:30
289,Paamiut,GL,61.994,-49.6678,42.24,91,52,3.67,broken clouds,2022-07-24 17:36:27
290,Shaunavon,CA,49.6501,-108.4181,74.98,32,1,8.75,clear sky,2022-07-24 17:36:30
291,Bud,US,39.447,-86.1758,86.9,74,73,15.86,broken clouds,2022-07-24 17:36:31
292,Lubao,PH,14.9167,120.55,82.11,84,97,1.36,overcast clouds,2022-07-24 17:36:31
293,Bathsheba,BB,13.2167,-59.5167,88.41,82,75,18.41,broken clouds,2022-07-24 17:36:32
294,Mount Gambier,AU,-37.8333,140.7667,54.68,86,100,10.45,overcast clouds,2022-07-24 17:31:54
295,Kidal,ML,18.4411,1.4078,95.72,28,84,4.92,broken clouds,2022-07-24 17:36:32
296,Pemangkat,ID,1.1667,108.9667,78.31,86,100,5.55,overcast clouds,2022-07-24 17:35:53
297,Shingu,JP,33.7333,135.9833,73.69,87,99,3.58,overcast clouds,2022-07-24 17:36:33
298,Batticaloa,LK,7.7102,81.6924,81.03,71,100,5.57,overcast clouds,2022-07-24 17:36:33
299,Severo-Kurilsk,RU,50.6789,156.125,52.18,98,100,11.9,light rain,2022-07-24 17:36:34
300,Fairmont,US,39.4851,-80.1426,89.91,67,87,10.11,overcast clouds,2022-07-24 17:36:34
301,Mayo,US,38.8876,-76.5119,98.08,65,0,8.05,clear sky,2022-07-24 17:36:35
302,Three Hills,CA,51.7001,-113.2686,73.47,66,36,4.61,scattered clouds,2022-07-24 17:33:52
303,Provideniya,RU,64.3833,-173.3,42.53,87,100,5.12,overcast clouds,2022-07-24 17:36:35
304,Nanchang,CN,28.6833,115.8833,85.42,71,44,1.66,scattered clouds,2022-07-24 17:36:36
305,Bure,ET,10.7,37.0667,56.8,100,100,2.28,light rain,2022-07-24 17:36:36
306,Yinchuan,CN,38.4681,106.2731,75.74,45,9,8.16,clear sky,2022-07-24 17:32:48
307,Pitimbu,BR,-7.4706,-34.8086,81.19,72,98,18.84,overcast clouds,2022-07-24 17:36:37
308,Srednekolymsk,RU,67.45,153.6833,57.45,50,100,5.82,overcast clouds,2022-07-24 17:36:37
309,Mundwa,IN,27.0667,73.8167,84.45,71,99,8.32,overcast clouds,2022-07-24 17:36:38
310,Klaksvik,FO,62.2266,-6.589,52.72,94,100,28.61,light rain,2022-07-24 17:36:38
311,Caravelas,BR,-17.7125,-39.2481,76.24,60,86,7.85,overcast clouds,2022-07-24 17:36:39
312,Haines Junction,CA,60.7522,-137.5108,48.15,87,100,1.14,overcast clouds,2022-07-24 17:36:39
313,Auki,SB,-8.7676,160.7034,76.66,88,10,4.27,clear sky,2022-07-24 17:36:40
314,Cap Malheureux,MU,-19.9842,57.6142,71.29,70,2,15.14,clear sky,2022-07-24 17:36:40
315,Esperance,AU,-33.8667,121.9,53.04,67,90,12.33,overcast clouds,2022-07-24 17:36:41
316,Bitung,ID,1.4451,125.1824,74.25,84,67,12.93,broken clouds,2022-07-24 17:36:41
317,Chifeng,CN,42.2683,118.9636,69.35,84,96,1.9,overcast clouds,2022-07-24 17:36:41
318,Vestmanna,FO,62.1564,-7.1664,50.92,71,100,14.97,overcast clouds,2022-07-24 17:36:42
319,Rio Verde De Mato Grosso,BR,-18.9181,-54.8442,94.42,17,6,7.14,clear sky,2022-07-24 17:36:42
320,North Vernon,US,39.0062,-85.6236,88.29,71,66,14.7,broken clouds,2022-07-24 17:36:43
321,Sarakhs,IR,36.5449,61.1577,91.54,31,0,0.0,clear sky,2022-07-24 17:36:43
322,Amahai,ID,-3.3333,128.9167,75.54,89,86,3.4,overcast clouds,2022-07-24 17:36:43
323,Bulawayo,ZW,-20.15,28.5833,62.28,30,63,9.04,broken clouds,2022-07-24 17:36:44
324,Kruisfontein,ZA,-34.0033,24.7314,53.89,86,34,6.35,scattered clouds,2022-07-24 17:34:19
325,Pailon,BO,-17.65,-62.75,89.28,26,0,15.43,clear sky,2022-07-24 17:37:44
326,Quelimane,MZ,-17.8786,36.8883,71.55,83,0,6.91,clear sky,2022-07-24 17:37:45
327,Batemans Bay,AU,-35.7167,150.1833,49.1,95,12,3.42,few clouds,2022-07-24 17:37:45
328,Dalaba,GN,10.7,-12.25,63.88,97,99,2.66,moderate rain,2022-07-24 17:37:46
329,Antofagasta,CL,-23.65,-70.4,60.08,70,3,7.09,clear sky,2022-07-24 17:37:46
330,Asau,RO,46.4333,26.4,65.32,94,96,4.14,overcast clouds,2022-07-24 17:37:47
331,Borovskoy,KZ,53.8,64.15,67.17,63,10,2.1,clear sky,2022-07-24 17:37:47
332,Katangli,RU,51.7102,143.2326,55.56,97,17,3.62,few clouds,2022-07-24 17:37:47
333,Bardiyah,LY,31.7561,25.0865,81.3,52,0,12.35,clear sky,2022-07-24 17:37:48
334,Bambous Virieux,MU,-20.3428,57.7575,70.05,73,40,10.36,scattered clouds,2022-07-24 17:37:48
335,Salina,US,38.8403,-97.6114,90.3,63,0,12.66,clear sky,2022-07-24 17:37:26
336,Aykino,RU,62.2248,49.9922,58.5,98,96,5.61,overcast clouds,2022-07-24 17:37:49
337,Hauterive,FR,46.0901,3.4459,92.16,30,0,3.24,clear sky,2022-07-24 17:37:49
338,Nome,US,64.5011,-165.4064,48.27,87,100,0.0,overcast clouds,2022-07-24 17:37:50
339,Kungurtug,RU,50.5994,97.5228,47.7,89,30,2.48,scattered clouds,2022-07-24 17:34:33
340,Rayachoti,IN,14.05,78.75,80.98,60,100,12.55,heavy intensity rain,2022-07-24 17:37:50
341,Alta Floresta,BR,-9.8756,-56.0861,98.42,23,0,8.05,clear sky,2022-07-24 17:35:22
342,Kirakira,SB,-10.4544,161.9205,77.65,84,19,7.02,few clouds,2022-07-24 17:37:51
343,Berlevag,NO,70.8578,29.0864,53.55,76,87,13.8,overcast clouds,2022-07-24 17:37:51
344,Yanam,IN,16.7333,82.2167,79.12,87,99,4.65,overcast clouds,2022-07-24 17:37:52
345,Leningradskiy,RU,69.3833,178.4167,34.39,99,100,3.56,overcast clouds,2022-07-24 17:37:52
346,Pacific Grove,US,36.6177,-121.9166,60.48,93,100,8.01,overcast clouds,2022-07-24 17:37:53
347,Kasongo,CD,-4.45,26.6667,82.27,36,80,1.7,broken clouds,2022-07-24 17:37:53
348,Redding,US,40.5865,-122.3917,95.61,21,0,5.01,clear sky,2022-07-24 17:36:04
349,Maniitsoq,GL,65.4167,-52.9,45.3,90,82,13.29,broken clouds,2022-07-24 17:37:54
350,Namibe,AO,-15.1961,12.1522,63.61,89,44,4.63,scattered clouds,2022-07-24 17:37:54
351,Galle,LK,6.0367,80.217,78.66,86,99,11.74,overcast clouds,2022-07-24 17:37:55
352,Teutonia,BR,-29.4481,-51.8064,82.31,80,99,2.42,moderate rain,2022-07-24 17:37:55
353,Alofi,NU,-19.0595,-169.9187,58.89,94,100,3.44,overcast clouds,2022-07-24 17:34:05
354,Emirdag,TR,39.0197,31.15,70.86,28,0,7.78,clear sky,2022-07-24 17:37:56
355,Northam,GB,51.0333,-4.2167,70.39,96,100,18.41,overcast clouds,2022-07-24 17:37:56
356,Esmeraldas,BR,-19.7625,-44.3139,78.91,27,0,6.42,clear sky,2022-07-24 17:37:56
357,Torbay,CA,47.6666,-52.7314,86.77,52,40,10.36,scattered clouds,2022-07-24 17:34:19
358,Isangel,VU,-19.55,169.2667,75.76,88,0,3.85,clear sky,2022-07-24 17:34:09
359,Port Hardy,CA,50.6996,-127.4199,59.18,82,75,6.91,broken clouds,2022-07-24 17:37:57
360,Burns Lake,CA,54.2331,-125.7533,58.42,50,100,4.7,overcast clouds,2022-07-24 17:37:58
361,Arlit,NE,18.7369,7.3853,102.0,19,23,6.29,few clouds,2022-07-24 17:37:58
362,Kargat,RU,55.1956,80.2811,51.44,94,100,6.6,overcast clouds,2022-07-24 17:37:58
363,Gwadar,PK,25.1216,62.3254,82.38,82,100,11.97,light rain,2022-07-24 17:37:59
364,Hualmay,PE,-11.0964,-77.6139,67.77,67,36,10.63,scattered clouds,2022-07-24 17:37:04
365,Neiafu,TO,-18.65,-173.9833,74.08,68,20,6.91,few clouds,2022-07-24 17:38:00
366,Warrington,GB,53.3925,-2.5802,68.88,93,75,16.11,broken clouds,2022-07-24 17:38:00
367,Praia,CV,14.9215,-23.5087,84.74,70,20,9.22,few clouds,2022-07-24 17:38:01
368,Havre-Saint-Pierre,CA,50.2334,-63.5986,73.76,68,0,11.5,clear sky,2022-07-24 17:38:01
369,Gainesville,US,29.6516,-82.3248,91.9,55,75,3.44,broken clouds,2022-07-24 17:33:37
370,Spearfish,US,44.4908,-103.8594,83.66,37,0,9.22,clear sky,2022-07-24 17:38:02
371,Pangai,TO,-19.8,-174.35,73.51,78,20,16.11,few clouds,2022-07-24 17:38:02
372,Itarema,BR,-2.9248,-39.9167,84.79,63,57,18.21,broken clouds,2022-07-24 17:39:02
373,Dong Hoi,VN,17.4833,106.6,78.15,84,2,4.03,clear sky,2022-07-24 17:39:03
374,Tarakan,ID,3.3,117.6333,79.95,82,29,7.65,scattered clouds,2022-07-24 17:39:03
375,Lieksa,FI,63.3167,30.0167,62.67,70,100,4.09,overcast clouds,2022-07-24 17:39:04
376,Amnat Charoen,TH,15.9167,104.75,78.51,81,19,3.13,light rain,2022-07-24 17:39:04
377,Ust-Kuyga,RU,70.0167,135.6,61.5,73,18,4.29,few clouds,2022-07-24 17:39:05
378,Dingle,PH,10.9995,122.6711,76.26,90,93,2.21,overcast clouds,2022-07-24 17:39:05
379,Buala,SB,-8.145,159.5921,79.39,81,16,7.14,light rain,2022-07-24 17:39:06
380,Tommot,RU,58.9564,126.2925,67.68,92,29,1.95,scattered clouds,2022-07-24 17:39:06
381,Camacha,PT,33.0833,-16.3333,78.22,61,20,14.97,few clouds,2022-07-24 17:34:58
382,Bardejov,SK,49.2918,21.2727,71.42,60,13,5.19,few clouds,2022-07-24 17:39:07
383,Chara,RU,56.9064,118.2631,62.78,75,14,3.51,few clouds,2022-07-24 17:39:07
384,Sibolga,ID,1.7427,98.7792,75.94,92,100,3.04,light rain,2022-07-24 17:39:08
385,Solnechnyy,RU,50.7214,136.6319,60.98,91,8,4.0,clear sky,2022-07-24 17:39:08
386,Shenjiamen,CN,29.9576,122.298,77.18,92,4,6.29,clear sky,2022-07-24 17:39:08
387,Piacabucu,BR,-10.4056,-36.4344,77.52,67,82,11.36,broken clouds,2022-07-24 17:39:09
388,Manado,ID,1.487,124.8455,74.17,94,20,2.3,few clouds,2022-07-24 17:39:09
389,Son La,VN,21.3167,103.9,72.95,92,77,2.28,broken clouds,2022-07-24 17:39:10
390,Alhadas,PT,40.1861,-8.7906,78.28,62,18,11.01,few clouds,2022-07-24 17:39:10
391,Karakol,KG,42.4907,78.3936,63.21,67,63,4.61,broken clouds,2022-07-24 17:39:11
392,Loreto,MX,22.2667,-101.9667,75.83,36,12,5.73,few clouds,2022-07-24 17:39:11
393,Bulgan,MN,48.8125,103.5347,47.86,86,9,3.6,clear sky,2022-07-24 17:39:11
394,Nizwa,OM,22.9333,57.5333,89.49,44,100,2.55,overcast clouds,2022-07-24 17:39:12
395,Coro,VE,11.4045,-69.6734,88.83,56,9,19.66,clear sky,2022-07-24 17:39:12
396,Buenos Aires,AR,-34.6132,-58.3772,59.99,96,100,18.41,mist,2022-07-24 17:39:13
397,Thinadhoo,MV,0.5333,72.9333,81.45,75,97,8.1,overcast clouds,2022-07-24 17:39:13
398,Ugoofaaru,MV,5.6667,73.0,81.66,75,52,12.1,broken clouds,2022-07-24 17:39:13
399,Armidale,AU,-30.5167,151.65,36.59,91,0,2.24,clear sky,2022-07-24 17:39:14
400,Bintulu,MY,3.1667,113.0333,75.61,100,40,5.01,scattered clouds,2022-07-24 17:39:14
401,Jesup,US,31.6074,-81.8854,91.35,52,0,4.61,clear sky,2022-07-24 17:39:15
402,Esteli,NI,13.0919,-86.3538,82.15,52,99,9.13,overcast clouds,2022-07-24 17:39:15
403,Lakes Entrance,AU,-37.8811,147.981,48.58,84,83,4.0,broken clouds,2022-07-24 17:39:16
404,Pulandian,CN,39.3953,121.9669,71.74,90,0,3.09,clear sky,2022-07-24 17:39:16
405,Cabra,ES,37.4725,-4.4421,105.66,9,36,1.99,scattered clouds,2022-07-24 17:39:17
406,Muroto,JP,33.2833,134.15,78.35,83,97,3.29,overcast clouds,2022-07-24 17:39:17
407,Kupang,ID,-10.1667,123.5833,70.0,74,68,8.81,broken clouds,2022-07-24 17:39:18
408,Puerto Madryn,AR,-42.7692,-65.0385,44.19,79,100,14.79,overcast clouds,2022-07-24 17:36:20
409,Cabedelo,BR,-6.9811,-34.8339,81.27,76,85,20.83,overcast clouds,2022-07-24 17:39:18
410,Ancud,CL,-41.8697,-73.8203,48.22,90,100,2.26,light rain,2022-07-24 17:34:31
411,Whitianga,NZ,-36.8333,175.7,55.8,93,100,23.17,overcast clouds,2022-07-24 17:39:19
412,Flin Flon,CA,54.7682,-101.865,66.04,48,75,5.75,broken clouds,2022-07-24 17:39:20
413,Acapulco,MX,16.8634,-99.8901,85.82,66,40,3.44,scattered clouds,2022-07-24 17:39:20
414,Centralia,US,46.7162,-122.9543,72.95,71,0,4.61,clear sky,2022-07-24 17:39:20
415,Juneau,US,58.3019,-134.4197,56.84,98,100,13.8,moderate rain,2022-07-24 17:39:21
416,Okha,RU,53.5739,142.9478,57.97,95,61,9.57,broken clouds,2022-07-24 17:35:08
417,Silver City,US,32.7701,-108.2803,85.68,45,0,6.91,clear sky,2022-07-24 17:39:21
418,Pueblo Rico,CO,5.2383,-76.0364,70.83,86,89,3.11,overcast clouds,2022-07-24 17:40:22
419,Kuvandyk,RU,51.4781,57.3552,69.73,51,84,6.78,broken clouds,2022-07-24 17:40:22
420,Fort Nelson,CA,58.8053,-122.7002,69.39,37,75,9.22,broken clouds,2022-07-24 17:40:23
421,Thayetmyo,MM,19.3167,95.1833,77.04,89,96,2.35,overcast clouds,2022-07-24 17:40:23
422,Zaysan,KZ,47.4667,84.8667,66.67,33,5,6.87,clear sky,2022-07-24 17:40:24
423,Sambava,MG,-14.2667,50.1667,69.8,84,30,11.65,scattered clouds,2022-07-24 17:40:24
424,Hobyo,SO,5.3505,48.5268,76.14,82,67,25.17,broken clouds,2022-07-24 17:40:25
425,Port Hedland,AU,-20.3167,118.5667,57.25,72,0,8.05,clear sky,2022-07-24 17:40:25
426,Alenquer,BR,-1.9417,-54.7383,93.69,39,92,6.78,overcast clouds,2022-07-24 17:40:26
427,Hirara,JP,24.8,125.2833,84.34,77,69,6.71,broken clouds,2022-07-24 17:40:26
428,Pederneiras,BR,-22.3517,-48.775,85.78,21,61,1.74,broken clouds,2022-07-24 17:40:26
429,Egvekinot,RU,66.3167,-179.1667,36.19,74,99,8.75,overcast clouds,2022-07-24 17:40:27
430,Veinticinco De Mayo,AR,-35.4323,-60.1727,60.98,83,92,5.99,overcast clouds,2022-07-24 17:40:27
431,Le Mars,US,42.7942,-96.1656,83.71,44,0,13.8,clear sky,2022-07-24 17:40:28
432,Mocuba,MZ,-16.8392,36.9856,66.11,84,6,4.92,clear sky,2022-07-24 17:40:28
433,Rock Springs,US,41.5875,-109.2029,71.04,52,100,18.41,overcast clouds,2022-07-24 17:40:28
434,Balaipungut,ID,1.05,101.2833,74.88,98,100,1.99,overcast clouds,2022-07-24 17:40:29
435,Konskie,PL,51.1917,20.4061,74.19,55,5,4.72,clear sky,2022-07-24 17:40:29
436,Kikwit,CD,-5.041,18.8162,82.15,45,75,1.25,broken clouds,2022-07-24 17:40:30
437,Hami,CN,42.8,93.45,88.66,20,60,9.51,broken clouds,2022-07-24 17:40:30
438,Hofn,IS,64.2539,-15.2082,52.3,79,56,5.7,broken clouds,2022-07-24 17:40:31
439,Tilichiki,RU,60.4667,166.1,49.41,86,99,4.9,overcast clouds,2022-07-24 17:40:31
440,Rameshki,RU,57.3439,36.0453,64.94,94,70,6.55,moderate rain,2022-07-24 17:40:32
441,Saint George,US,37.1041,-113.5841,90.19,37,75,9.22,broken clouds,2022-07-24 17:37:31
442,Victoria,HK,22.2855,114.1577,89.19,83,2,8.99,clear sky,2022-07-24 17:35:56
443,Rio Esteban,HN,15.8333,-86.3,89.65,55,60,5.91,broken clouds,2022-07-24 17:40:33
444,Barra Patuca,HN,15.8,-84.2833,84.27,69,95,7.34,overcast clouds,2022-07-24 17:40:33
445,Vangaindrano,MG,-23.35,47.6,65.98,91,3,4.76,clear sky,2022-07-24 17:40:33
446,Zhigansk,RU,66.7697,123.3711,54.61,83,55,10.09,broken clouds,2022-07-24 17:40:34
447,Kenai,US,60.5544,-151.2583,59.02,74,100,11.5,overcast clouds,2022-07-24 17:40:34
448,Santa Cruz De La Palma,ES,28.6835,-17.7642,78.94,78,40,14.97,scattered clouds,2022-07-24 17:40:35
449,Sur,OM,22.5667,59.5289,92.05,57,86,10.49,overcast clouds,2022-07-24 17:40:35
450,Rosetta,EG,31.4044,30.4164,77.92,76,0,9.15,clear sky,2022-07-24 17:40:36
451,Riyadh,SA,24.6877,46.7219,105.94,11,97,6.58,overcast clouds,2022-07-24 17:38:25
452,Arroyo,ES,41.6096,-4.7969,95.14,13,0,20.71,clear sky,2022-07-24 17:40:36
453,Silvan,TR,38.1419,41.0081,80.89,20,0,9.01,clear sky,2022-07-24 17:40:37
454,Urucara,BR,-2.5364,-57.76,92.37,40,49,4.05,scattered clouds,2022-07-24 17:40:37
455,Xiaoweizhai,CN,26.1903,107.5125,71.29,95,0,4.12,clear sky,2022-07-24 17:40:38
456,West Lafayette,US,40.4259,-86.9081,80.69,78,75,4.61,heavy intensity rain,2022-07-24 17:40:38
457,Polson,US,47.6936,-114.1632,77.77,61,93,5.01,overcast clouds,2022-07-24 17:40:38
458,Mikhaylovka,RU,50.06,43.2379,68.79,79,79,6.69,broken clouds,2022-07-24 17:40:39
459,Bisira,PA,8.5196,-81.7115,62.24,90,100,6.11,overcast clouds,2022-07-24 17:40:39
460,Zapolyarnyy,RU,69.4154,30.8136,56.48,67,77,10.92,broken clouds,2022-07-24 17:40:40
461,Popondetta,PG,-8.7537,148.2534,72.14,96,43,2.84,scattered clouds,2022-07-24 17:40:40
462,Mayumba,GA,-3.432,10.6554,70.74,89,43,5.23,scattered clouds,2022-07-24 17:41:41
463,Grindavik,IS,63.8424,-22.4338,53.55,82,75,10.36,broken clouds,2022-07-24 17:41:41
464,Waingapu,ID,-9.6567,120.2641,69.91,75,48,8.46,scattered clouds,2022-07-24 17:41:42
465,Vama,RO,47.5667,25.6833,66.04,96,98,3.31,overcast clouds,2022-07-24 17:41:42
466,Shelburne,CA,44.0787,-80.2041,70.12,95,100,16.24,light rain,2022-07-24 17:41:42
467,Bonthe,SL,7.5264,-12.505,74.43,88,100,8.59,light rain,2022-07-24 17:41:43
468,Jaru,BR,-10.4389,-62.4664,98.13,20,37,3.62,scattered clouds,2022-07-24 17:37:52
469,Male,MV,4.1748,73.5089,82.35,83,75,8.05,broken clouds,2022-07-24 17:41:44
470,Guerrero,MX,17.6667,-100.0,74.34,78,100,2.98,overcast clouds,2022-07-24 17:41:44
471,Yen Bai,VN,21.7,104.8667,77.88,93,1,2.08,clear sky,2022-07-24 17:41:44
472,Blagoyevo,RU,63.3667,47.9167,52.83,89,90,3.62,overcast clouds,2022-07-24 17:41:45
473,Desterro,BR,-7.2906,-37.0939,81.36,43,84,14.63,broken clouds,2022-07-24 17:41:45
474,Gumdag,TM,39.2061,54.5906,83.23,49,66,14.76,broken clouds,2022-07-24 17:41:46
475,Gaffney,US,35.0718,-81.6498,94.8,48,26,7.78,scattered clouds,2022-07-24 17:41:46
476,Lakhnau,IN,26.85,80.9167,85.98,89,75,9.22,mist,2022-07-24 17:41:46
477,Batagay-Alyta,RU,67.8006,130.4114,50.54,92,36,1.19,scattered clouds,2022-07-24 17:41:47
478,Kutum,SD,14.2,24.6667,90.01,20,38,5.08,scattered clouds,2022-07-24 17:41:47
479,Safranbolu,TR,41.2508,32.6942,64.08,74,0,2.77,clear sky,2022-07-24 17:41:48
480,Chardara,KZ,41.2547,67.9692,87.35,22,0,9.78,clear sky,2022-07-24 17:41:48
481,Yar-Sale,RU,66.8333,70.8333,46.51,93,66,11.68,broken clouds,2022-07-24 17:41:49
482,Los Andes,CL,-32.8337,-70.5983,63.01,51,96,4.21,overcast clouds,2022-07-24 17:41:49
483,Prachuap Khiri Khan,TH,12.2167,99.75,74.05,91,75,2.3,broken clouds,2022-07-24 17:40:06
484,Westport,US,41.1415,-73.3579,97.09,49,0,16.11,clear sky,2022-07-24 17:40:08
485,Baillif,GP,16.0202,-61.7463,87.3,69,1,11.18,clear sky,2022-07-24 17:41:50
486,Wawa,NG,9.9022,4.4192,79.66,71,59,4.61,broken clouds,2022-07-24 17:41:51
487,Kichera,RU,55.9375,110.0997,59.68,90,80,2.44,broken clouds,2022-07-24 17:41:51
488,Jasper,US,37.2001,-94.3502,101.01,35,0,14.97,clear sky,2022-07-24 17:37:33
489,Spirit River,CA,55.7833,-118.8361,66.63,62,100,7.74,overcast clouds,2022-07-24 17:41:52
490,Coos Bay,US,43.3665,-124.2179,66.24,88,40,12.66,scattered clouds,2022-07-24 17:37:04
491,Sobolevo,RU,54.4299,31.8996,63.1,97,100,4.09,light rain,2022-07-24 17:41:52
492,Kununurra,AU,-15.7667,128.7333,49.98,87,4,0.0,clear sky,2022-07-24 17:41:53
493,Tateyama,JP,34.9833,139.8667,79.11,89,100,11.18,overcast clouds,2022-07-24 17:41:53
494,Lagunas,PE,-5.2269,-75.6753,90.07,46,80,4.52,broken clouds,2022-07-24 17:41:54
495,Lata,PT,40.1629,-8.3327,77.07,39,29,8.03,scattered clouds,2022-07-24 17:41:54
496,Asilah,MA,35.465,-6.0348,93.16,33,42,17.63,scattered clouds,2022-07-24 17:41:54
497,Simplicio Mendes,BR,-7.8539,-41.9103,88.05,31,98,11.03,overcast clouds,2022-07-24 17:41:55
498,Wewak,PG,-3.5534,143.6268,79.79,86,39,8.43,scattered clouds,2022-07-24 17:41:55
499,Naze,JP,28.3667,129.4833,81.52,85,2,3.87,clear sky,2022-07-24 17:41:56
500,Kavaratti,IN,10.5669,72.642,80.78,79,97,12.84,overcast clouds,2022-07-24 17:41:56
501,Tazmalt,DZ,36.3868,4.3989,96.69,14,2,9.1,clear sky,2022-07-24 17:41:57
502,Yarkovo,RU,57.4028,67.0786,60.33,76,19,5.21,few clouds,2022-07-24 17:41:57
503,Mangrol,IN,21.1167,70.1167,80.85,85,100,19.3,overcast clouds,2022-07-24 17:41:58
504,Port Lincoln,AU,-34.7333,135.8667,55.26,86,90,15.12,overcast clouds,2022-07-24 17:41:58
505,Kabo,CF,7.6994,18.629,75.99,84,79,2.3,broken clouds,2022-07-24 17:41:58
506,Swan Hill,AU,-35.3378,143.5544,52.09,74,99,10.83,light rain,2022-07-24 17:41:59
507,Araouane,ML,18.9048,-3.5265,93.29,38,90,11.88,overcast clouds,2022-07-24 17:41:59
508,Krasnyy Chikoy,RU,50.3643,108.7512,55.45,97,94,4.34,overcast clouds,2022-07-24 17:42:00
509,Ayagoz,KZ,47.9714,80.4392,63.45,47,2,10.89,clear sky,2022-07-24 17:43:00
510,Yulara,AU,-25.2406,130.9889,52.79,68,0,9.75,clear sky,2022-07-24 17:43:00
511,Cap-Aux-Meules,CA,47.3821,-61.8597,77.05,69,75,9.22,broken clouds,2022-07-24 17:43:01
512,Novoagansk,RU,61.9449,76.6625,49.66,92,98,6.31,overcast clouds,2022-07-24 17:43:01
513,Munirabad,IN,15.3333,76.3333,76.19,77,95,15.08,overcast clouds,2022-07-24 17:43:02
514,Voiteg,RO,45.4689,21.2392,87.03,35,98,6.08,overcast clouds,2022-07-24 17:43:02
515,Tucuma,BR,-0.1833,-50.05,87.39,59,78,6.76,broken clouds,2022-07-24 17:43:03
516,Ankara,TR,39.9199,32.8543,79.99,30,0,13.8,clear sky,2022-07-24 17:43:03
517,Luderitz,NA,-26.6481,15.1594,64.42,52,0,9.44,clear sky,2022-07-24 17:43:04
518,Quang Ngai,VN,15.1167,108.8,76.21,91,19,5.03,few clouds,2022-07-24 17:43:04
519,Faribault,US,44.295,-93.2688,76.71,57,75,16.11,broken clouds,2022-07-24 17:43:05
520,Shahr-E Kord,IR,32.3256,50.8644,80.37,11,0,13.8,clear sky,2022-07-24 17:43:05
521,Ispas,UA,48.2973,25.2741,70.29,73,99,6.2,overcast clouds,2022-07-24 17:43:05
522,Trinidad,BO,-14.8333,-64.9,94.98,41,20,10.36,few clouds,2022-07-24 17:43:06
523,Sasykoli,RU,47.5515,46.9968,66.43,74,90,5.26,moderate rain,2022-07-24 17:43:06
524,Nouakchott,MR,18.0858,-15.9785,80.53,79,34,13.89,scattered clouds,2022-07-24 17:43:07
525,Goderich,CA,43.7501,-81.7165,76.91,88,97,8.05,overcast clouds,2022-07-24 17:43:07
526,Ponta Delgada,PT,37.7333,-25.6667,74.12,88,20,11.5,few clouds,2022-07-24 17:43:08
527,Samarai,PG,-10.6167,150.6667,79.07,84,85,14.9,overcast clouds,2022-07-24 17:43:08
528,Rio Grande,BR,-32.035,-52.0986,75.31,84,92,1.83,overcast clouds,2022-07-24 17:43:08
529,Dabat,ET,12.9842,37.765,52.23,97,100,2.95,overcast clouds,2022-07-24 17:43:09
530,Amvrosiyivka,UA,47.7935,38.4777,71.6,52,66,7.29,broken clouds,2022-07-24 17:43:09
531,Nhamunda,BR,-2.1861,-56.7131,95.81,33,70,5.37,broken clouds,2022-07-24 17:43:10
532,Sidney,AU,-33.8679,151.2073,52.39,93,0,8.05,clear sky,2022-07-24 17:39:26
533,Hoi An,VN,15.8794,108.335,82.36,89,10,5.79,clear sky,2022-07-24 17:43:10
534,Payo,ID,-3.7508,103.6372,72.61,98,100,2.04,moderate rain,2022-07-24 17:43:11
535,Taitung,TW,22.7583,121.1444,81.79,82,38,3.44,scattered clouds,2022-07-24 17:43:11
536,Bosaso,SO,11.2842,49.1816,92.88,39,94,21.21,overcast clouds,2022-07-24 17:43:12
537,Gizo,SB,-8.103,156.8419,81.5,78,12,7.56,light rain,2022-07-24 17:43:12
538,Paragominas,BR,-2.9667,-47.4833,93.22,35,64,4.03,broken clouds,2022-07-24 17:43:12
539,Ust-Ishim,RU,57.6935,71.1665,56.01,81,94,4.81,overcast clouds,2022-07-24 17:43:13
540,Celestun,MX,20.8667,-90.4,86.9,65,56,12.03,broken clouds,2022-07-24 17:43:13
541,Pekan,MY,3.4836,103.3996,78.91,88,56,1.34,broken clouds,2022-07-24 17:43:14
542,Monte Carmelo,BR,-18.7247,-47.4986,81.55,29,4,8.72,clear sky,2022-07-24 17:43:14
543,Merrill,US,45.1805,-89.6835,76.77,59,40,16.11,scattered clouds,2022-07-24 17:43:14
544,Dunedin,NZ,-45.8742,170.5036,44.8,78,40,2.57,scattered clouds,2022-07-24 17:43:15
545,Kyra,RU,49.5776,111.9753,56.19,97,90,1.39,overcast clouds,2022-07-24 17:43:15
546,Shetpe,KZ,44.1667,52.1167,74.1,54,43,11.3,scattered clouds,2022-07-24 17:43:16
547,Sabang,ID,5.8933,95.3214,80.33,82,99,15.86,overcast clouds,2022-07-24 17:43:16
548,Kem,RU,64.9555,34.5793,54.57,85,98,5.59,overcast clouds,2022-07-24 17:43:17
549,Trelew,AR,-43.249,-65.3051,42.04,77,100,12.48,overcast clouds,2022-07-24 17:38:46
550,Zyryanka,RU,65.75,150.85,57.15,58,79,1.99,broken clouds,2022-07-24 17:43:17
551,Ust-Ilimsk,RU,58.0006,102.6619,56.1,90,64,2.13,broken clouds,2022-07-24 17:43:18
552,Salamiyah,SY,35.0113,37.0532,82.9,27,0,10.36,clear sky,2022-07-24 17:43:19
553,Moron,AR,-34.6534,-58.6198,63.01,96,100,7.9,overcast clouds,2022-07-24 17:43:19
554,Broken Hill,AU,-31.95,141.4333,56.3,66,58,12.1,broken clouds,2022-07-24 17:44:20
555,Porto Novo,BJ,6.4965,2.6036,80.42,77,80,8.16,broken clouds,2022-07-24 17:44:20
556,Aleksandrov Gay,RU,50.147,48.5704,69.22,65,55,5.82,light rain,2022-07-24 17:44:20
557,Nechanice,CZ,50.2374,15.6328,80.46,41,19,4.14,few clouds,2022-07-24 17:44:21
558,Catuday,PH,16.2923,119.8062,82.24,79,57,4.41,light rain,2022-07-24 17:44:21
559,Catamarca,AR,-28.4696,-65.7852,81.59,48,0,1.99,clear sky,2022-07-24 17:40:46
560,Sinnamary,GF,5.3833,-52.95,82.96,75,87,9.19,overcast clouds,2022-07-24 17:44:22
561,Albania,AL,41.0,20.0,84.24,28,0,3.69,clear sky,2022-07-24 17:44:22
562,Limon,CR,10.0,-83.0333,84.09,74,0,3.44,clear sky,2022-07-24 17:44:23
563,Vostok,RU,46.4856,135.8833,57.76,97,94,2.19,overcast clouds,2022-07-24 17:43:43
564,Nanakuli,US,21.3906,-158.1547,79.61,71,0,6.91,clear sky,2022-07-24 17:44:23
565,Mayuge,UG,0.4597,33.4803,67.06,68,36,5.39,scattered clouds,2022-07-24 17:44:24
566,Tigil,RU,57.8,158.6667,46.76,85,64,2.3,broken clouds,2022-07-24 17:44:24
567,Ola,RU,59.5833,151.2833,52.14,91,100,3.58,light rain,2022-07-24 17:44:25
568,Gezing,AT,47.9178,13.1299,82.65,42,20,6.91,few clouds,2022-07-24 17:44:25
569,Shelton,US,41.3165,-73.0932,95.94,49,0,16.11,clear sky,2022-07-24 17:44:25
570,Bad Aussee,AT,47.61,13.7824,71.82,79,42,3.06,scattered clouds,2022-07-24 17:44:26
571,Ayan,RU,56.45,138.1667,57.99,92,80,14.72,broken clouds,2022-07-24 17:44:26
572,Svetlogorsk,BY,52.6333,29.7333,64.78,95,87,10.13,overcast clouds,2022-07-24 17:44:27
573,Taksimo,RU,56.3444,114.8794,63.12,89,97,0.69,overcast clouds,2022-07-24 17:44:27
574,La Ronge,CA,55.1001,-105.2842,66.45,63,75,9.22,broken clouds,2022-07-24 17:44:28
575,Derzhavinsk,KZ,51.1,66.3167,71.55,42,1,7.11,clear sky,2022-07-24 17:44:28
576,Stawell,AU,-37.05,142.7667,50.56,79,100,13.13,overcast clouds,2022-07-24 17:44:28
577,Palmer,US,42.1584,-72.3287,95.45,40,75,16.11,broken clouds,2022-07-24 17:44:29
578,Talnakh,RU,69.4865,88.3972,61.21,74,91,19.15,overcast clouds,2022-07-24 17:44:29
579,Williams Lake,CA,52.1415,-122.1445,73.06,51,75,5.75,broken clouds,2022-07-24 17:44:30
580,Maldonado,UY,-34.6667,-54.9167,58.39,77,64,5.55,broken clouds,2022-07-24 17:42:02
581,Dhidhdhoo,MV,6.8833,73.1,81.48,77,79,13.09,broken clouds,2022-07-24 17:44:30
582,Summerland,CA,49.5998,-119.6691,86.18,39,20,6.91,few clouds,2022-07-24 17:41:25
583,Tura,IN,25.5198,90.2201,74.07,97,99,3.49,overcast clouds,2022-07-24 17:44:31
584,Goundam,ML,16.4145,-3.6708,85.57,42,100,9.31,overcast clouds,2022-07-24 17:44:31
585,Ulladulla,AU,-35.35,150.4667,50.54,93,3,3.4,clear sky,2022-07-24 17:44:32
586,Quzhou,CN,28.9594,118.8686,76.87,87,70,3.49,broken clouds,2022-07-24 17:44:32
587,Bystryy Istok,RU,52.371,84.3873,53.31,92,36,5.39,scattered clouds,2022-07-24 17:44:33
588,Karratha,AU,-20.7377,116.8463,66.58,51,0,9.6,clear sky,2022-07-24 17:44:33
589,Sungairaya,ID,0.7,108.9,77.56,90,100,5.95,overcast clouds,2022-07-24 17:44:34
590,Mantua,IT,45.1667,10.7833,96.35,46,29,13.38,scattered clouds,2022-07-24 17:44:34
591,Ureki,GE,41.9956,41.7786,73.36,77,1,7.9,light rain,2022-07-24 17:44:35
592,Darhan,MN,49.4867,105.9228,58.37,83,100,4.03,overcast clouds,2022-07-24 17:44:35
593,Kulhudhuffushi,MV,6.6221,73.07,81.46,76,68,12.68,broken clouds,2022-07-24 17:44:35
594,Kolpashevo,RU,58.3131,82.9089,48.29,93,100,5.48,overcast clouds,2022-07-24 17:44:36
595,Ulagan,RU,50.6321,87.9563,49.55,95,84,1.39,broken clouds,2022-07-24 17:44:36
596,Nianzishan,CN,47.5167,122.8833,61.68,92,87,4.07,overcast clouds,2022-07-24 17:44:37
597,Zonguldak,TR,41.25,31.8333,67.05,79,0,1.68,clear sky,2022-07-24 17:44:37
598,Avera,US,33.194,-82.5271,92.37,40,30,3.29,scattered clouds,2022-07-24 17:44:38
599,Chicama,PE,-7.8447,-79.1469,61.34,58,20,10.33,few clouds,2022-07-24 17:44:38
600,Kushmurun,KZ,52.4503,64.6311,71.67,54,5,3.85,clear sky,2022-07-24 17:45:38
601,Ngunguru,NZ,-35.6167,174.5,58.23,92,100,32.82,light rain,2022-07-24 17:45:39
602,Oksfjord,NO,70.2396,22.3479,55.47,77,72,2.44,broken clouds,2022-07-24 17:45:39
603,Wanaka,NZ,-44.7,169.15,32.11,98,95,3.0,overcast clouds,2022-07-24 17:45:40
604,Karasjok,NO,69.4719,25.5112,51.46,75,100,3.33,overcast clouds,2022-07-24 17:45:40
605,Viedma,AR,-40.8135,-62.9967,49.15,67,100,14.38,moderate rain,2022-07-24 17:45:40
606,Santa Isabel Do Rio Negro,BR,-0.4139,-65.0192,84.27,81,93,1.07,overcast clouds,2022-07-24 17:45:41
607,Narrabri,AU,-30.3167,149.7833,46.53,85,2,3.0,clear sky,2022-07-24 17:45:41
608,Abu Dhabi,AE,24.4667,54.3667,95.11,74,0,5.75,clear sky,2022-07-24 17:45:42
609,Primorsk,UA,46.7348,36.3443,73.74,68,69,8.01,broken clouds,2022-07-24 17:45:42
610,The Valley,AI,18.217,-63.0578,86.14,70,40,14.97,scattered clouds,2022-07-24 17:45:43
611,Raga,SS,8.4596,25.678,73.38,88,95,3.76,overcast clouds,2022-07-24 17:45:43
612,Biltine,TD,14.5333,20.9167,92.71,34,11,8.41,few clouds,2022-07-24 17:45:43
613,Alice Springs,AU,-23.7,133.8833,56.75,47,0,10.36,clear sky,2022-07-24 17:45:44
614,Sinegorye,RU,62.0788,150.477,53.78,88,83,1.14,broken clouds,2022-07-24 17:45:44
615,Big Rapids,US,43.6981,-85.4837,78.87,78,100,13.8,overcast clouds,2022-07-24 17:45:45
616,Ismailia,EG,30.6043,32.2723,79.9,57,2,9.73,clear sky,2022-07-24 17:45:45
617,Polunochnoye,RU,60.8697,60.4153,61.14,95,96,4.74,light rain,2022-07-24 17:45:46
618,Leh,IN,34.1667,77.5833,65.46,55,89,4.29,overcast clouds,2022-07-24 17:45:46
619,Baruun-Urt,MN,46.6806,113.2792,62.13,73,15,4.97,few clouds,2022-07-24 17:45:47
620,Palmerston,AU,-12.486,130.9833,67.98,90,9,5.75,clear sky,2022-07-24 17:45:47
621,Aginskoye,RU,51.1,114.53,58.71,96,56,2.8,broken clouds,2022-07-24 17:45:47
622,Sale,MA,34.0389,-6.8166,86.68,51,75,9.22,broken clouds,2022-07-24 17:45:48
623,Gambo,CF,4.6482,22.2633,71.74,94,72,2.15,broken clouds,2022-07-24 17:45:48
624,Imeni Poliny Osipenko,RU,52.4201,136.4853,60.08,94,5,3.83,clear sky,2022-07-24 17:45:49
625,Padang,ID,-0.9492,100.3543,77.14,88,99,2.8,light rain,2022-07-24 17:45:49
626,Cabinda,AO,-5.55,12.2,71.08,89,41,10.56,scattered clouds,2022-07-24 17:45:49
627,Vargem Grande,BR,-3.5431,-43.9158,92.64,39,100,1.92,overcast clouds,2022-07-24 17:45:50
628,Sept-Iles,CA,50.2001,-66.3821,73.92,71,75,13.8,broken clouds,2022-07-24 17:45:03
629,Trimbak,IN,19.9333,73.55,67.75,96,100,7.07,overcast clouds,2022-07-24 17:45:50
630,Usogorsk,RU,63.4106,48.6872,52.11,91,89,3.44,overcast clouds,2022-07-24 17:45:51
631,Stromness,GB,58.965,-3.296,60.76,90,80,1.99,moderate rain,2022-07-24 17:45:51
632,Marawi,PH,7.9986,124.2928,69.93,91,100,3.56,overcast clouds,2022-07-24 17:45:52
633,Santa Rosa,PH,14.3122,121.1114,84.18,80,97,4.97,overcast clouds,2022-07-24 17:45:52
634,Ilhabela,BR,-23.7781,-45.3581,74.68,63,59,2.71,broken clouds,2022-07-24 17:45:53
635,Arona,ES,28.0996,-16.681,80.73,54,0,3.44,clear sky,2022-07-24 17:45:53
636,Winnemucca,US,40.973,-117.7357,84.25,13,0,12.66,clear sky,2022-07-24 17:45:54
637,Namwala,ZM,-15.7504,26.4384,69.21,33,22,7.38,few clouds,2022-07-24 17:45:54
638,Andrews,US,32.3187,-102.5457,92.41,42,0,10.36,clear sky,2022-07-24 17:42:30
639,Barra Do Garcas,BR,-15.89,-52.2567,90.18,33,20,8.05,few clouds,2022-07-24 17:45:55
640,Kaseda,JP,31.4167,130.3167,79.38,93,42,4.61,scattered clouds,2022-07-24 17:45:55
641,Cabo Rojo,PR,18.0866,-67.1457,91.72,66,13,8.99,few clouds,2022-07-24 17:45:55
642,Vicuna,CL,-30.0319,-70.7081,73.78,48,43,2.73,scattered clouds,2022-07-24 17:45:56
643,Vizinga,RU,61.0749,50.1031,66.18,82,50,4.07,scattered clouds,2022-07-24 17:45:56
644,Ossora,RU,59.2353,163.0719,49.71,87,3,3.47,clear sky,2022-07-24 17:45:57
645,Minas De Barroteran,MX,27.6333,-101.2833,91.83,37,19,9.55,few clouds,2022-07-24 17:45:57
646,Saint-Joseph,RE,-21.3667,55.6167,68.22,82,50,10.51,scattered clouds,2022-07-24 17:45:58
647,Balkhash,KZ,46.844,74.9804,77.5,31,35,18.59,scattered clouds,2022-07-24 17:45:58
648,Seoul,KR,37.5683,126.9778,76.6,94,75,2.3,broken clouds,2022-07-24 17:43:41
649,Edd,ER,13.9297,41.6925,89.82,65,78,5.12,broken clouds,2022-07-24 17:46:59
650,Kamenskiy,RU,50.8855,45.488,60.6,93,73,9.51,broken clouds,2022-07-24 17:46:59
651,Ulaangom,MN,49.9811,92.0667,61.03,57,14,3.8,few clouds,2022-07-24 17:46:59
652,Boden,SE,65.8252,21.6886,64.4,61,98,2.77,overcast clouds,2022-07-24 17:47:00
653,Keningau,MY,5.3378,116.1602,71.65,99,93,1.05,overcast clouds,2022-07-24 17:47:00
654,Khuldabad,IN,20.05,75.1833,69.76,90,100,10.18,overcast clouds,2022-07-24 17:47:01
655,Furano,JP,43.2818,142.4743,60.53,98,96,2.77,overcast clouds,2022-07-24 17:47:01
656,Ketchikan,US,55.3422,-131.6461,57.67,94,100,12.66,heavy intensity rain,2022-07-24 17:47:02
657,Brenes,ES,37.5494,-5.8714,110.32,8,0,6.91,clear sky,2022-07-24 17:47:02
658,Sistranda,NO,63.7256,8.834,60.76,84,100,15.01,light rain,2022-07-24 17:47:03
659,Nidzica,PL,53.3605,20.4275,67.59,67,88,6.69,overcast clouds,2022-07-24 17:47:03
660,Ha Tinh,VN,18.3333,105.9,76.86,89,4,2.75,clear sky,2022-07-24 17:43:44
661,Krasnohrad,UA,49.3814,35.4402,69.84,61,90,5.64,overcast clouds,2022-07-24 17:47:04
662,Beatrice,US,40.2681,-96.747,78.89,69,0,0.0,clear sky,2022-07-24 17:47:04
663,Huazhou,CN,21.6333,110.5833,80.65,85,0,4.12,clear sky,2022-07-24 17:47:05
664,Tromso,NO,69.6496,18.957,56.37,71,20,13.8,few clouds,2022-07-24 17:47:05
665,Bakchar,RU,57.0186,82.0711,49.89,96,93,6.2,overcast clouds,2022-07-24 17:47:05
666,Afsin,TR,38.2477,36.914,64.4,51,0,10.98,clear sky,2022-07-24 17:47:06
667,Bugarama,TZ,-2.8706,30.5281,70.56,43,88,4.38,overcast clouds,2022-07-24 17:47:06
668,Porosozero,RU,62.7191,32.727,59.47,84,100,3.96,overcast clouds,2022-07-24 17:47:07
669,Bandarbeyla,SO,9.4942,50.8122,76.66,81,100,31.88,overcast clouds,2022-07-24 17:45:16
670,Semey,KZ,50.4111,80.2275,60.87,54,3,7.23,clear sky,2022-07-24 17:47:07
671,Nabire,ID,-3.3667,135.4833,75.74,92,90,2.93,overcast clouds,2022-07-24 17:47:08
672,Great Falls,US,47.5002,-111.3008,78.19,34,0,4.61,clear sky,2022-07-24 17:44:54
673,Razam,IN,18.4667,83.6667,78.21,92,100,4.63,overcast clouds,2022-07-24 17:47:08
674,Amudat,UG,1.95,34.95,70.25,72,75,1.12,broken clouds,2022-07-24 17:47:09
675,Suntar,RU,62.1444,117.6319,69.44,90,53,5.73,broken clouds,2022-07-24 17:47:09
676,Sakakah,SA,29.9697,40.2064,99.97,12,3,9.48,clear sky,2022-07-24 17:47:10
677,Zurrieq,MT,35.8311,14.4742,85.51,58,0,12.66,clear sky,2022-07-24 17:47:10
678,Port-Gentil,GA,-0.7193,8.7815,76.96,73,75,8.05,broken clouds,2022-07-24 17:47:10
679,Charleston,US,32.7766,-79.9309,90.21,73,40,11.5,thunderstorm,2022-07-24 17:45:45
680,Valparaiso,CL,-33.0393,-71.6273,55.04,98,100,6.91,fog,2022-07-24 17:46:56
681,Ucluelet,CA,48.9329,-125.5528,57.51,78,50,3.74,scattered clouds,2022-07-24 17:47:11
682,Alta,NO,69.9689,23.2717,54.66,71,75,2.3,broken clouds,2022-07-24 17:47:12
683,Pilar,BR,-9.5972,-35.9567,82.33,75,94,8.59,overcast clouds,2022-07-24 17:47:12
684,Bhag,PK,29.0415,67.8239,82.38,79,100,7.99,overcast clouds,2022-07-24 17:47:13
685,Haverfordwest,GB,51.8017,-4.9691,65.05,89,98,5.99,overcast clouds,2022-07-24 17:47:13
686,Tual,ID,-5.6667,132.75,78.57,87,87,17.11,overcast clouds,2022-07-24 17:47:14
687,Erenhot,CN,43.6475,111.9767,77.13,36,33,1.74,scattered clouds,2022-07-24 17:47:14
688,Lamu,KE,-2.2717,40.902,75.42,79,31,18.77,scattered clouds,2022-07-24 17:47:14
689,Wattegama,LK,6.7989,81.4808,77.74,82,100,2.68,overcast clouds,2022-07-24 17:47:15
690,Waipawa,NZ,-41.4122,175.5153,44.83,87,100,10.92,overcast clouds,2022-07-24 17:47:15
691,Quatre Cocos,MU,-20.2078,57.7625,69.91,72,16,11.16,few clouds,2022-07-24 17:46:51
692,Danciulesti,RO,44.7333,23.75,88.83,37,77,8.75,broken clouds,2022-07-24 17:47:16
693,Palana,RU,59.1167,159.9667,46.24,80,0,4.32,clear sky,2022-07-24 17:47:16
694,Rio Gallegos,AR,-51.6226,-69.2181,33.85,69,0,13.8,clear sky,2022-07-24 17:47:17
695,Iquique,CL,-20.2208,-70.1431,62.64,71,4,6.26,clear sky,2022-07-24 17:46:33
696,Lupiro,TZ,-8.3833,36.6667,72.77,53,49,2.37,scattered clouds,2022-07-24 17:48:17
697,Vierzon,FR,47.2101,2.0625,96.87,24,3,2.17,clear sky,2022-07-24 17:48:18
698,Powell River,CA,49.8496,-124.5361,72.19,82,75,8.05,broken clouds,2022-07-24 17:45:42
699,Bundaberg,AU,-24.85,152.35,53.22,99,2,1.01,clear sky,2022-07-24 17:48:18
700,Kroya,ID,-7.6331,109.2461,72.61,81,84,6.51,broken clouds,2022-07-24 17:48:19
701,Ereymentau,KZ,51.6199,73.1033,59.0,55,6,0.92,clear sky,2022-07-24 17:48:19
702,Taltal,CL,-25.4,-70.4833,60.94,71,14,4.81,few clouds,2022-07-24 17:47:00
703,Coquimbo,CL,-29.9533,-71.3436,55.13,76,100,8.05,overcast clouds,2022-07-24 17:48:20
704,Lyngseidet,NO,69.5763,20.2189,51.8,72,86,5.28,overcast clouds,2022-07-24 17:48:20
705,Korla,CN,41.7597,86.1469,89.38,20,57,23.09,broken clouds,2022-07-24 17:48:21
706,Curup,ID,-3.4667,102.5333,67.42,98,100,1.77,overcast clouds,2022-07-24 17:48:21
